,City,Country,Lat,Lng,Max Temp,Humidity,Cloudiness,Wind Speed,Current Description
0,Elizabeth City,US,36.29,-76.25,62.6,72,20,5.82,few clouds
1,Novo Oriente,BR,-5.53,-40.77,82.27,47,59,3.13,broken clouds
2,Timmins,CA,48.47,-81.33,32.0,98,75,2.24,broken clouds
3,New Norfolk,AU,-42.78,147.06,64.0,53,79,1.99,broken clouds
4,Punta Arenas,CL,-53.15,-70.92,50.0,53,40,26.4,scattered clouds
5,Yellowknife,CA,62.46,-114.35,10.4,78,75,9.17,light snow
6,Lavrentiya,RU,65.58,-171.0,30.78,97,100,1.57,overcast clouds
7,Nikolskoye,RU,59.7,30.79,32.0,94,90,6.71,light shower snow
8,Menongue,AO,-14.66,17.69,65.14,86,84,2.44,broken clouds
9,Lebu,CL,-37.62,-73.65,54.48,66,3,17.36,clear sky
10,Ginir,ET,7.13,40.7,57.6,92,14,3.27,light rain
11,Siparia,TT,10.13,-61.5,79.0,83,75,8.05,shower rain
12,Ushuaia,AR,-54.8,-68.3,44.6,81,40,4.7,scattered clouds
13,Puerto Ayora,EC,-0.74,-90.35,70.84,84,85,11.16,overcast clouds
14,Torbay,CA,47.67,-52.73,26.01,62,75,9.17,broken clouds
15,Khowst,AF,33.38,69.88,38.98,73,5,3.0,clear sky
16,Molina,CL,-35.12,-71.28,77.0,31,0,14.99,clear sky
17,Iqaluit,CA,63.75,-68.51,-0.4,77,75,14.99,broken clouds
18,Ribeira Grande,PT,38.52,-28.7,57.6,62,15,12.17,few clouds
19,Aswan,EG,24.09,32.91,62.47,55,0,8.75,clear sky
20,Atuona,PF,-9.8,-139.03,78.12,75,54,17.74,broken clouds
21,Clyde River,CA,70.47,-68.59,5.0,84,75,17.22,broken clouds
22,Hermanus,ZA,-34.42,19.23,58.06,71,26,8.01,scattered clouds
23,Qaanaaq,GL,77.48,-69.36,-3.62,85,30,2.91,scattered clouds
24,Avarua,CK,-21.21,-159.78,78.8,61,82,8.05,broken clouds
25,Cabo San Lucas,MX,22.89,-109.91,82.4,51,20,8.05,few clouds
26,Antalaha,MG,-14.9,50.28,71.8,88,77,6.62,broken clouds
27,Praia,CV,14.92,-23.51,78.8,74,75,16.11,haze
28,Oksfjord,NO,70.24,22.35,23.0,85,5,16.11,clear sky
29,Atasu,KZ,48.68,71.64,8.31,87,0,3.02,clear sky
30,Whyalla,AU,-33.03,137.58,71.6,73,31,17.22,scattered clouds
31,Tuktoyaktuk,CA,69.45,-133.04,-9.4,76,20,5.82,few clouds
32,Taltal,CL,-25.4,-70.48,62.87,70,43,3.91,scattered clouds
33,Minab,IR,27.15,57.08,55.4,43,0,6.93,clear sky
34,San Blas,MX,21.52,-105.27,86.0,42,5,9.17,clear sky
35,Kruisfontein,ZA,-34.0,24.73,53.01,84,0,5.17,clear sky
36,Bambous Virieux,MU,-20.34,57.76,75.2,94,75,14.99,shower rain
37,Tual,ID,-5.67,132.75,84.38,69,56,4.14,broken clouds
38,Tiksi,RU,71.69,128.87,-5.06,91,30,9.06,scattered clouds
39,Thompson,CA,55.74,-97.86,12.2,92,90,3.36,light snow
40,Filadelfia,US,39.95,-75.16,53.6,58,90,6.93,overcast clouds
41,Georgetown,MY,5.41,100.34,78.8,88,20,3.36,few clouds
42,Channel-Port Aux Basques,CA,47.57,-59.14,32.68,88,100,11.92,overcast clouds
43,Taoudenni,ML,22.68,-3.98,62.04,35,0,9.66,clear sky
44,Hobart,AU,-42.88,147.33,63.0,36,0,12.75,clear sky
45,Kavieng,PG,-2.57,150.8,83.23,73,93,4.0,moderate rain
46,Cherskiy,RU,68.75,161.3,22.78,96,100,22.64,overcast clouds
47,Hithadhoo,MV,-0.6,73.08,82.13,78,98,16.4,overcast clouds
48,Albany,US,42.6,-73.97,48.99,56,100,4.59,overcast clouds
49,Rikitea,PF,-23.12,-134.97,72.1,87,100,6.13,light rain
50,Kapaa,US,22.08,-159.32,77.0,88,90,16.11,heavy intensity rain
51,Hilo,US,19.73,-155.09,73.4,88,90,8.05,mist
52,Am Timan,TD,11.03,20.28,75.9,30,85,7.38,overcast clouds
53,Luderitz,NA,-26.65,15.16,60.8,67,0,20.8,clear sky
54,Olinda,BR,-8.01,-34.86,80.6,74,40,10.29,scattered clouds
55,Nishihara,JP,26.18,127.76,71.6,68,75,14.99,broken clouds
56,Mogzon,RU,51.74,111.96,-1.34,92,42,2.04,scattered clouds
57,Isangel,VU,-19.55,169.27,82.02,71,100,9.1,overcast clouds
58,Talnakh,RU,69.49,88.4,12.2,92,75,20.13,light snow
59,Jamestown,US,42.1,-79.24,45.0,93,90,9.17,overcast clouds
60,Daru,PG,-9.08,143.21,82.2,76,100,7.47,overcast clouds
61,Standish,US,43.98,-83.96,42.01,100,90,4.7,heavy intensity rain
62,Ostrovnoy,RU,68.05,39.51,28.78,97,24,13.78,few clouds
63,Bredasdorp,ZA,-34.53,20.04,51.8,76,39,5.82,scattered clouds
64,Riyadh,SA,24.69,46.72,60.8,38,0,5.82,clear sky
65,Castro,BR,-24.79,-50.01,68.94,62,28,5.37,scattered clouds
66,Khani,GE,41.96,42.96,41.0,100,75,4.7,broken clouds
67,Tasiilaq,GL,65.61,-37.64,23.16,93,95,41.03,light snow
68,Floriano,BR,-6.77,-43.02,79.7,58,38,3.71,scattered clouds
69,Zlitan,LY,32.47,14.57,64.15,65,37,3.94,scattered clouds
70,Ilulissat,GL,69.22,-51.1,30.2,58,100,17.22,overcast clouds
71,Mataura,NZ,-46.19,168.86,62.01,66,100,5.01,overcast clouds
72,Provideniya,RU,64.38,-173.3,32.0,95,75,13.42,broken clouds
73,Kaitangata,NZ,-46.28,169.85,61.0,69,78,10.0,broken clouds
74,Sitka,US,57.05,-135.33,44.6,70,90,9.17,overcast clouds
75,Cape Town,ZA,-33.93,18.42,62.01,58,75,5.82,broken clouds
76,Bedford,GB,52.13,-0.47,39.99,93,11,5.01,few clouds
77,Kodiak,US,57.79,-152.41,41.0,56,40,11.41,scattered clouds
78,Wattegama,LK,6.8,81.48,75.2,100,20,2.98,few clouds
79,Butaritari,KI,3.07,172.79,81.14,73,78,20.24,broken clouds
80,Chuy,UY,-33.7,-53.46,68.13,93,100,3.56,overcast clouds
81,Vila Velha,BR,-20.33,-40.29,75.99,88,40,5.82,scattered clouds
82,Coffs Harbour,AU,-30.3,153.13,77.0,57,0,9.17,clear sky
83,Trelew,AR,-43.25,-65.31,66.2,17,75,34.45,broken clouds
84,Soller,ES,39.77,2.72,55.99,76,0,5.82,clear sky
85,Malakal,SS,9.53,31.66,78.19,27,9,5.1,clear sky
86,Te Anau,NZ,-45.42,167.72,66.27,48,95,3.27,overcast clouds
87,Leningradskiy,RU,69.38,178.42,29.14,98,100,23.04,overcast clouds
88,Busselton,AU,-33.65,115.33,57.99,71,82,7.0,broken clouds
89,Bluff,NZ,-46.6,168.33,62.01,66,100,5.01,overcast clouds
90,Jacqueville,CI,5.21,-4.41,82.4,83,20,8.05,few clouds
91,Jalu,LY,29.03,21.55,56.53,69,0,8.81,clear sky
92,Mangrol,IN,21.12,70.12,72.55,39,0,14.23,clear sky
93,Waw,SS,7.7,28.0,78.89,31,64,3.8,broken clouds
94,Port Augusta,AU,-32.5,137.77,87.01,73,9,17.22,clear sky
95,Yar-Sale,RU,66.83,70.83,8.2,95,95,11.65,overcast clouds
96,Santa Rosa,PH,14.31,121.11,78.8,69,40,5.82,scattered clouds
97,Port Hardy,CA,50.7,-127.42,44.6,87,75,4.7,broken clouds
98,Pisco,PE,-13.7,-76.22,66.2,77,20,8.05,few clouds
99,Adelaide,AU,-34.93,138.6,75.99,53,20,10.29,few clouds
100,Pogar,RU,52.55,33.26,32.22,98,88,3.27,overcast clouds
101,Gizo,SB,-8.1,156.84,83.43,69,88,7.67,overcast clouds
102,Grand Gaube,MU,-20.01,57.66,75.0,86,7,5.99,light rain
103,Ust-Nera,RU,64.57,143.2,-19.98,78,99,3.71,overcast clouds
104,Opuwo,NA,-18.06,13.84,70.61,34,2,5.53,clear sky
105,Aksarka,RU,66.56,67.8,5.65,95,100,10.11,overcast clouds
106,Paracuru,BR,-3.41,-39.03,81.0,73,93,18.01,overcast clouds
107,Vaini,TO,-21.2,-175.2,82.4,74,20,9.17,few clouds
108,Altamira,BR,-3.2,-52.21,77.99,84,98,3.2,overcast clouds
109,Urusha,RU,54.05,122.9,6.13,83,33,7.27,scattered clouds
110,Ahipara,NZ,-35.17,173.17,65.26,85,100,14.14,overcast clouds
111,Vitim,RU,59.45,112.56,5.31,93,100,5.32,overcast clouds
112,Guerrero Negro,MX,27.98,-114.06,68.25,64,90,12.01,overcast clouds
113,Fortuna,US,40.6,-124.16,53.01,76,15,4.0,few clouds
114,Bathsheba,BB,13.22,-59.52,80.6,78,20,13.87,few clouds
115,Tuatapere,NZ,-46.13,167.68,62.01,66,95,5.01,overcast clouds
116,Acari,PE,-15.43,-74.62,67.17,63,49,7.2,scattered clouds
117,Port Elizabeth,ZA,-33.92,25.57,53.01,84,1,6.58,clear sky
118,Nan,TH,18.83,100.67,65.48,95,5,0.85,light rain
119,Fallon,US,39.47,-118.78,46.4,36,75,14.99,broken clouds
120,Nanaimo,CA,49.17,-123.94,44.6,81,86,3.36,overcast clouds
121,Alice Springs,AU,-23.7,133.88,86.0,11,16,9.17,few clouds
122,East London,ZA,-33.02,27.91,64.85,68,96,2.19,overcast clouds
123,Shelburne,CA,44.08,-80.2,37.4,100,90,4.7,overcast clouds
124,Mpika,ZM,-11.83,31.45,72.12,49,88,2.08,overcast clouds
125,Broome,US,42.25,-75.83,41.0,86,90,8.05,moderate rain
126,Siquijor,PH,9.21,123.52,80.6,78,75,4.7,broken clouds
127,Cidreira,BR,-30.18,-50.21,76.39,76,100,17.36,light rain
128,Lakes Entrance,AU,-37.88,147.98,73.0,64,60,3.0,broken clouds
129,Vuktyl,RU,63.86,57.31,22.41,97,99,8.39,overcast clouds
130,Ancud,CL,-41.87,-73.82,53.01,76,75,9.17,light intensity shower rain
131,Kununurra,AU,-15.77,128.73,84.2,89,14,4.7,few clouds
132,Verkhoyansk,RU,67.54,133.38,-6.74,89,100,2.89,overcast clouds
133,Paamiut,GL,61.99,-49.67,25.14,81,90,17.09,overcast clouds
134,Klaksvik,FO,62.23,-6.59,35.6,69,79,6.93,broken clouds
135,Monrovia,LR,6.3,-10.8,77.0,94,75,5.82,thunderstorm
136,Mount Gambier,AU,-37.83,140.77,60.8,59,40,14.99,scattered clouds
137,Mahon,ES,39.89,4.27,60.8,82,79,11.41,broken clouds
138,Kijang,KR,35.24,129.21,46.4,52,0,8.05,clear sky
139,Novoorsk,RU,51.38,58.98,15.8,78,90,8.95,light snow
140,Acarau,BR,-2.89,-40.12,80.29,75,87,16.4,overcast clouds
141,Benxi,CN,41.29,123.77,21.2,92,74,4.47,broken clouds
142,Kargasok,RU,59.06,80.86,8.8,96,54,5.21,broken clouds
143,Russell,US,32.35,-85.2,75.2,57,90,10.29,overcast clouds
144,Arlit,NE,18.74,7.39,70.97,25,0,11.56,clear sky
145,Arraial Do Cabo,BR,-22.97,-42.03,71.6,87,75,9.17,mist
146,Ismailia,EG,30.6,32.27,60.91,70,10,12.26,clear sky
147,Lagoa,PT,39.05,-27.98,57.25,66,83,15.05,broken clouds
148,Touros,BR,-5.2,-35.46,78.8,78,20,5.82,few clouds
149,Galle,LK,6.04,80.22,78.89,82,86,7.29,overcast clouds
150,Bongandanga,CD,1.5,21.05,72.64,88,31,0.2,scattered clouds
151,Ranong,TH,9.97,98.63,76.48,83,97,4.97,light rain
152,Dikson,RU,73.51,80.55,9.09,95,100,18.03,overcast clouds
153,Bonwapitse,BW,-23.08,26.7,72.21,67,83,16.42,broken clouds
154,Gull Lake,CA,50.1,-108.48,30.2,92,90,20.8,overcast clouds
155,Saint-Philippe,RE,-21.36,55.77,75.2,83,51,8.05,light rain
156,Katsuura,JP,35.13,140.3,53.6,100,75,5.82,mist
157,Coquimbo,CL,-29.95,-71.34,66.2,59,0,16.11,clear sky
158,Barrow,US,71.29,-156.79,10.4,78,90,35.57,snow
159,Arrifes,PT,37.77,-25.7,57.2,67,75,11.41,light intensity shower rain
160,Cabedelo,BR,-6.98,-34.83,77.0,83,20,5.82,few clouds
161,Shache,CN,38.42,77.24,20.21,88,96,8.43,overcast clouds
162,Los Llanos De Aridane,ES,28.66,-17.92,66.2,55,0,3.36,clear sky
163,Buena Vista,US,43.42,-83.9,42.8,93,90,5.82,light rain
164,Erice,IT,38.04,12.59,61.0,87,0,3.36,clear sky
165,Chistogorskiy,RU,53.98,87.38,4.42,92,12,2.42,few clouds
166,Asfi,MA,32.3,-9.24,55.44,86,100,14.74,heavy intensity rain
167,Cockburn Town,TC,21.46,-71.14,78.91,74,7,23.51,clear sky
168,Port Macquarie,AU,-31.43,152.92,80.01,54,2,1.99,clear sky
169,Egvekinot,RU,66.32,-179.17,17.58,95,65,7.25,broken clouds
170,Shenjiamen,CN,29.96,122.3,58.77,92,100,19.3,overcast clouds
171,Aitape,PG,-3.14,142.35,80.56,76,64,3.15,broken clouds
172,Severo-Kurilsk,RU,50.68,156.12,30.07,91,97,17.58,overcast clouds
173,Kondinskoye,RU,59.65,67.41,15.78,96,100,8.57,overcast clouds
174,Ambilobe,MG,-13.2,49.05,73.85,75,76,3.62,broken clouds
175,Chimore,BO,-16.98,-65.13,86.5,52,89,3.2,overcast clouds
176,Fairbanks,US,64.84,-147.72,30.2,63,75,5.82,broken clouds
177,Gravdal,NO,68.12,13.5,33.8,77,20,4.18,few clouds
178,Linxia,CN,35.6,103.21,22.62,93,44,0.45,scattered clouds
179,Koulikoro,ML,14.0,-7.75,66.9,22,0,7.81,clear sky
180,Araouane,ML,18.9,-3.53,66.47,25,23,8.41,few clouds
181,Thunder Bay,CA,48.4,-89.32,35.6,80,75,4.7,broken clouds
182,Panguipulli,CL,-39.63,-72.33,59.0,47,21,9.17,few clouds
183,Saskylakh,RU,71.92,114.08,8.24,94,98,9.95,overcast clouds
184,Geraldton,AU,-28.77,114.6,64.4,82,35,6.93,scattered clouds
185,Mar Del Plata,AR,-38.0,-57.56,78.8,39,20,10.29,few clouds
186,Arequipa,PE,-16.4,-71.53,62.6,33,0,11.41,clear sky
187,Weyburn,CA,49.67,-103.85,35.6,69,100,18.34,overcast clouds
188,Akyab,MM,20.15,92.9,71.53,74,3,6.69,clear sky
189,Berlevag,NO,70.86,29.09,24.8,73,0,12.75,clear sky
190,Ballitoville,ZA,-29.54,31.21,69.8,77,75,1.12,broken clouds
191,Lucapa,AO,-8.42,20.74,66.07,95,85,1.34,overcast clouds
192,Port Lincoln,AU,-34.73,135.87,64.8,76,8,15.9,clear sky
193,San Quintin,MX,30.48,-115.95,63.75,69,0,10.09,clear sky
194,Kiama,AU,-34.68,150.87,73.99,70,0,2.17,clear sky
195,Padang,ID,-0.95,100.35,76.57,80,95,2.59,overcast clouds
196,Narsaq,GL,60.92,-46.05,24.8,58,98,21.92,light snow
197,Namibe,AO,-15.2,12.15,72.3,72,47,2.55,scattered clouds
198,Bubaque,GW,11.28,-15.83,83.95,59,40,10.25,scattered clouds
199,Kermanshah,IR,34.31,47.06,51.8,23,75,9.17,broken clouds
200,Hasaki,JP,35.73,140.83,48.99,100,90,2.24,fog
201,Nanganga,TZ,-10.38,39.15,73.27,88,71,4.34,broken clouds
202,Gouyave,GD,12.16,-61.73,78.8,88,75,13.87,broken clouds
203,Barbacoas,CO,1.67,-78.14,76.35,88,87,3.65,light rain
204,Waingapu,ID,-9.66,120.26,82.11,73,99,2.08,overcast clouds
205,Cochrane,CA,51.18,-114.47,33.8,91,1,6.93,clear sky
206,Alofi,NU,-19.06,-169.92,78.8,88,75,21.92,broken clouds
207,Teguise,ES,29.06,-13.56,64.4,63,40,18.34,scattered clouds
208,Sinnamary,GF,5.38,-52.95,78.28,88,98,7.23,overcast clouds
209,Frontera,MX,26.93,-101.45,75.22,19,0,5.1,clear sky
210,Vardo,NO,70.37,31.11,24.8,73,20,35.57,few clouds
211,Mayumba,GA,-3.43,10.66,76.89,88,100,6.17,overcast clouds
212,Saint-Augustin,CA,51.23,-58.65,24.06,77,100,15.79,overcast clouds
213,Santa Isabel Do Rio Negro,BR,-0.41,-65.02,75.79,96,100,3.96,overcast clouds
214,Pokhara,NP,28.23,83.98,58.82,33,100,2.26,overcast clouds
215,Puerto Del Rosario,ES,28.5,-13.86,64.4,72,40,17.22,scattered clouds
216,Verkhnyaya Toyma,RU,62.23,45.0,29.17,98,90,2.19,overcast clouds
217,Sur,OM,22.57,59.53,73.47,57,0,10.83,clear sky
218,Ixtapa,MX,20.7,-105.2,82.4,74,5,11.41,clear sky
219,Scottsbluff,US,41.87,-103.67,60.8,15,1,10.29,clear sky
220,Upernavik,GL,72.79,-56.15,6.58,89,76,9.98,broken clouds
221,Caravelas,BR,-17.71,-39.25,75.02,84,0,8.43,clear sky
222,Inyonga,TZ,-6.72,32.07,67.64,82,59,3.74,broken clouds
223,Kahului,US,20.89,-156.47,86.0,51,40,21.92,scattered clouds
224,Portoferraio,IT,42.81,10.31,55.0,80,92,8.28,overcast clouds
225,Victoria,HK,22.29,114.16,73.0,82,58,15.19,broken clouds
226,Lorengau,PG,-2.02,147.27,84.0,74,78,5.28,light rain
227,Terlizzi,IT,41.13,16.55,48.0,93,20,6.93,few clouds
228,Chokurdakh,RU,70.63,147.92,0.59,94,100,15.37,overcast clouds
229,Murbad,IN,19.25,73.4,77.0,69,60,3.69,haze
230,Savanur,IN,14.97,75.35,68.5,81,33,11.21,scattered clouds
231,Half Moon Bay,US,37.46,-122.43,60.01,66,1,18.34,clear sky
232,Jiazi,CN,22.88,116.07,67.59,87,58,7.65,broken clouds
233,Huarmey,PE,-10.07,-78.15,65.23,76,30,8.34,scattered clouds
234,Buchanan,LR,5.88,-10.05,77.0,94,75,5.82,thunderstorm
235,Kutum,SD,14.2,24.67,63.32,27,37,10.11,scattered clouds
236,Tawau,MY,4.25,117.89,73.4,100,20,2.24,few clouds
237,Boa Vista,BR,2.82,-60.67,77.0,94,90,5.82,overcast clouds
238,Khatanga,RU,71.97,102.5,11.37,96,99,11.34,overcast clouds
239,Xushan,CN,30.18,121.25,55.99,93,75,6.71,broken clouds
240,Adrar,MR,20.5,-10.07,65.71,25,74,6.55,broken clouds
241,Garden City,US,42.33,-83.33,50.0,93,90,10.29,mist
242,Ola,RU,59.58,151.28,-0.18,83,0,9.4,clear sky
243,Constitucion,CL,-35.33,-72.42,61.9,63,0,20.13,clear sky
244,Grindavik,IS,63.84,-22.43,39.2,100,90,41.38,heavy intensity rain
245,Zhigansk,RU,66.77,123.37,-5.76,90,95,13.42,overcast clouds
246,Wyszkow,PL,52.59,21.46,28.99,86,34,7.0,scattered clouds
247,Nouadhibou,MR,20.93,-17.03,69.8,52,0,12.75,clear sky
248,Dingle,PH,11.0,122.67,76.71,90,96,8.41,overcast clouds
249,Dunedin,NZ,-45.87,170.5,60.01,69,58,25.01,broken clouds
250,Malindi,KE,-3.22,40.12,79.14,86,16,6.02,few clouds
251,Tall Kayf,TR,37.08,41.07,53.92,60,100,12.01,overcast clouds
252,Laguna,US,38.42,-121.42,62.6,36,1,12.75,clear sky
253,Nynashamn,SE,58.9,17.95,46.99,67,100,17.22,overcast clouds
254,Bethel,US,41.37,-73.41,48.2,66,1,3.36,clear sky
255,Rorvik,NO,64.86,11.24,37.4,100,40,2.24,scattered clouds
256,Krasyliv,UA,49.65,26.97,32.14,93,5,3.53,clear sky
257,Salalah,OM,17.02,54.09,73.4,33,0,6.93,clear sky
258,Faanui,PF,-16.48,-151.75,80.35,81,48,14.03,moderate rain
259,Namatanai,PG,-3.67,152.43,84.67,67,21,7.96,few clouds
260,Meulaboh,ID,4.14,96.13,75.69,87,35,4.41,scattered clouds
261,Portland,US,45.52,-122.68,50.0,76,90,8.05,overcast clouds
262,Lerwick,GB,60.15,-1.15,39.2,86,71,9.17,broken clouds
263,Sibolga,ID,1.74,98.78,75.67,80,89,2.77,overcast clouds
264,Itacoatiara,BR,-3.14,-58.44,74.52,97,100,1.7,overcast clouds
265,Garmsar,IR,35.22,52.34,46.35,70,35,1.48,scattered clouds
266,Pecos,US,31.42,-103.49,69.8,18,1,4.7,clear sky
267,Trapani,IT,37.83,12.67,61.0,87,0,3.36,clear sky
268,Wanning,CN,18.8,110.4,74.62,88,86,12.08,overcast clouds
269,Necochea,AR,-38.55,-58.74,70.0,54,26,5.46,scattered clouds
270,Samarai,PG,-10.62,150.67,82.02,75,100,13.78,overcast clouds
271,Adeje,ES,28.12,-16.73,68.0,64,20,4.7,few clouds
272,San Patricio,US,28.02,-97.52,78.8,47,40,9.17,scattered clouds
273,Olafsvik,IS,64.89,-23.71,41.86,91,100,47.11,moderate rain
274,Carnarvon,AU,-24.87,113.63,69.8,88,0,18.34,clear sky
275,Naushahro Firoz,PK,26.84,68.12,58.24,56,0,8.72,clear sky
276,Nador,MA,35.17,-2.93,62.6,77,0,6.62,clear sky
277,Vung Tau,VN,10.35,107.08,79.12,74,49,13.09,light rain
278,Mahajanga,MG,-15.72,46.32,77.0,83,20,3.36,few clouds
279,Mont-De-Marsan,FR,44.0,-0.67,42.01,93,0,4.34,mist
280,Severnyy,RU,50.68,36.55,32.0,99,90,2.24,fog
281,Esperance,AU,-33.87,121.9,57.2,76,20,8.05,few clouds
282,Vao,NC,-22.67,167.48,75.11,83,100,10.85,overcast clouds
283,Bajina Basta,RS,43.97,19.57,30.2,92,0,2.24,clear sky
284,Merauke,ID,-8.47,140.33,80.6,84,100,10.18,moderate rain
285,Shanghai,CN,31.22,121.46,55.4,93,90,8.95,overcast clouds
286,Marica,BR,-22.92,-42.82,78.8,78,20,6.93,few clouds
287,Mountain Home,US,43.13,-115.69,39.2,80,75,14.99,broken clouds
288,Liberal,US,37.04,-100.92,55.4,26,1,16.11,clear sky
289,Ponta Do Sol,PT,32.67,-17.1,55.4,66,40,10.29,light intensity shower rain
290,Mareeba,AU,-17.0,145.43,82.99,65,4,8.05,light rain
291,Mina,MX,26.0,-100.53,84.2,18,75,12.75,broken clouds
292,Souillac,MU,-20.52,57.52,75.2,94,75,14.99,shower rain
293,Beaupre,CA,47.04,-70.9,26.6,86,100,2.59,overcast clouds
294,Okhotsk,RU,59.38,143.3,-4.49,85,2,24.16,clear sky
295,Novopokrovka,UA,49.84,36.55,35.6,93,90,4.47,overcast clouds
296,Tabuk,PH,17.42,121.44,70.75,85,45,3.78,scattered clouds
297,Conde,BR,-7.26,-34.91,77.0,83,20,5.82,few clouds
298,Bengkulu,ID,-3.8,102.27,75.51,84,80,4.38,moderate rain
299,Ponnani,IN,10.77,75.93,78.8,74,75,2.57,mist
300,Hofn,IS,64.25,-15.21,41.32,75,100,18.63,overcast clouds
301,Slyudyanka,RU,51.66,103.71,11.28,88,94,3.04,overcast clouds
302,Pitimbu,BR,-7.47,-34.81,77.0,83,20,5.82,few clouds
303,Tabou,CI,4.42,-7.35,77.36,88,8,8.55,light rain
304,Thinadhoo,MV,0.53,72.93,81.93,76,41,15.84,scattered clouds
305,Port Keats,AU,-14.25,129.55,89.04,70,7,7.67,clear sky
306,Flinders,AU,-34.58,150.86,73.99,70,0,2.48,clear sky
307,Verkhnetulomskiy,RU,68.61,31.8,17.6,92,0,6.71,clear sky
308,Gorele,TR,41.03,39.0,50.0,66,75,8.05,broken clouds
309,Mwinilunga,ZM,-11.74,24.43,62.55,92,88,2.15,overcast clouds
310,Abu Samrah,SY,35.3,37.18,54.45,74,100,11.12,light rain
311,Kaili,ID,-3.46,120.21,72.32,82,100,1.25,moderate rain
312,Port Alfred,ZA,-33.59,26.89,63.03,66,92,4.09,overcast clouds
313,Burns Lake,CA,54.23,-125.75,26.6,92,78,3.36,broken clouds
314,Coos Bay,US,43.37,-124.22,53.01,76,40,10.29,scattered clouds
315,Carutapera,BR,-1.2,-46.02,79.41,81,54,9.35,broken clouds
316,Mnogovershinnyy,RU,53.94,139.92,5.5,94,94,12.86,overcast clouds
317,Wonthaggi,AU,-38.6,145.59,69.01,80,26,5.99,scattered clouds
318,Sao Filipe,CV,14.9,-24.5,78.6,72,97,11.27,overcast clouds
319,Lanquin,GT,15.57,-89.97,71.6,68,40,4.7,scattered clouds
320,Kavaratti,IN,10.57,72.64,81.43,75,84,11.48,broken clouds
321,Spirit River,CA,55.78,-118.84,21.2,100,31,1.12,scattered clouds
322,Salinopolis,BR,-0.61,-47.36,80.91,82,94,13.53,overcast clouds
323,Hualmay,PE,-11.1,-77.61,65.44,75,71,8.08,broken clouds
324,Oranjemund,NA,-28.55,16.43,59.52,77,0,19.13,clear sky
325,Sandwick,GB,60.0,-1.25,39.2,86,80,9.17,broken clouds
326,Pangnirtung,CA,66.15,-65.71,17.6,67,75,17.22,broken clouds
327,Pevek,RU,69.7,170.31,28.54,96,100,16.6,overcast clouds
328,Pacific Grove,US,36.62,-121.92,57.99,67,1,10.29,clear sky
329,Kasempa,ZM,-13.46,25.83,63.54,96,100,1.59,moderate rain
330,Krasnyy Chikoy,RU,50.36,108.75,2.88,89,47,1.57,scattered clouds
331,Utrecht,NL,52.0,5.25,46.0,94,77,9.48,broken clouds
332,Papara,BR,-3.98,-38.73,81.0,78,20,8.05,few clouds
333,Airai,TL,-8.93,125.41,68.0,91,66,0.76,broken clouds
334,Mahebourg,MU,-20.41,57.7,75.2,94,75,14.99,shower rain
335,Tullahoma,US,35.36,-86.21,62.6,82,40,11.41,scattered clouds
336,Norman Wells,CA,65.28,-126.83,-0.4,84,40,5.82,scattered clouds
337,Monroe,US,43.15,-77.68,48.0,70,90,5.82,light rain
338,Ayagoz,KZ,47.97,80.44,6.53,88,5,5.95,clear sky
339,Vila Franca Do Campo,PT,37.72,-25.43,57.2,67,75,11.41,light intensity shower rain
340,Nome,US,64.5,-165.41,32.0,98,90,10.29,light snow
341,Rosita,NI,13.93,-84.4,73.18,97,100,3.38,light rain
342,Koslan,RU,63.46,48.9,23.13,98,85,4.14,overcast clouds
343,Chara,RU,56.91,118.26,-7.51,76,0,2.15,clear sky
344,Keti Bandar,PK,24.14,67.45,66.6,49,0,18.75,clear sky
345,Nyurba,RU,63.28,118.33,-7.73,90,79,5.68,broken clouds
346,Otane,NZ,-39.88,176.63,73.0,68,10,4.0,clear sky
347,Tekeli,KZ,44.83,78.82,21.56,76,99,4.74,overcast clouds
348,Akureyri,IS,65.68,-18.09,33.8,86,90,12.75,light rain
349,Denpasar,ID,-8.65,115.22,78.8,83,20,3.36,few clouds
350,Galatas,GR,37.5,23.45,55.4,58,40,6.93,scattered clouds
351,Bodden Town,KY,19.28,-81.25,84.2,66,20,13.87,moderate rain
352,Chifeng,CN,42.27,118.96,11.07,89,80,2.42,broken clouds
353,Aranos,NA,-24.13,19.12,71.24,24,68,11.03,broken clouds
354,Rognan,NO,67.1,15.39,33.01,93,100,2.19,overcast clouds
355,La Ronge,CA,55.1,-105.28,26.6,92,99,6.93,overcast clouds
356,Henties Bay,NA,-22.12,14.28,59.0,86,21,3.0,few clouds
357,Broken Hill,AU,-31.95,141.43,86.0,23,0,8.05,clear sky
358,Goksun,TR,38.02,36.5,48.2,81,75,5.82,broken clouds
359,Mukhen,RU,48.1,136.1,14.41,84,22,11.01,few clouds
360,Greenwood,US,34.17,-82.12,66.2,68,75,5.48,broken clouds
361,Sanmenxia,CN,34.77,111.18,36.95,82,75,2.39,broken clouds
362,Longyearbyen,SJ,78.22,15.64,17.6,61,75,9.17,broken clouds
363,Tondon,GN,10.37,-13.35,73.65,90,8,1.72,clear sky
364,Susanville,US,40.42,-120.65,43.0,38,75,13.87,broken clouds
365,Murzzuschlag,AT,47.6,15.68,34.0,88,0,1.99,clear sky
366,Dahanu,IN,19.97,72.73,75.43,66,0,8.95,clear sky
367,Arman,RU,59.7,150.17,-0.53,83,0,12.3,clear sky
368,Yerbogachen,RU,61.28,108.01,-4.22,91,22,5.93,few clouds
369,Tessalit,ML,20.2,1.01,61.66,28,0,6.2,clear sky
370,Rio Grande,BR,-32.03,-52.1,70.88,85,97,5.5,moderate rain
371,Cayenne,GF,4.93,-52.33,80.6,83,0,3.36,clear sky
372,Sao Felix Do Xingu,BR,-6.64,-51.99,73.98,91,51,0.6,broken clouds
373,Zeya,RU,53.75,127.27,5.76,86,35,6.49,scattered clouds
374,Misratah,LY,32.38,15.09,65.97,63,72,0.92,broken clouds
375,Hamilton,US,39.18,-84.53,59.0,93,40,6.93,scattered clouds
376,Vestmannaeyjar,IS,63.44,-20.27,41.2,93,100,39.77,moderate rain
377,Dobrinka,RU,52.17,40.47,28.49,99,84,5.5,broken clouds
378,Aykhal,RU,66.0,111.5,1.4,84,75,2.24,broken clouds
379,Coihaique,CL,-45.58,-72.07,51.8,57,40,5.82,scattered clouds
380,Svetlaya,RU,46.54,138.33,22.12,85,51,8.9,broken clouds
381,Valparaiso,CL,-33.04,-71.63,75.2,49,0,20.8,clear sky
382,Husavik,IS,66.04,-17.34,33.8,86,90,12.75,overcast clouds
383,Sorong,ID,-0.88,131.25,81.79,78,91,3.89,overcast clouds
384,Dong Hoi,VN,17.48,106.6,73.13,88,80,5.12,light rain
385,Thaton,MM,16.92,97.37,72.21,86,0,3.87,clear sky
386,Ouargaye,BF,11.5,0.06,77.02,20,0,5.37,clear sky
387,Yarada,IN,17.65,83.27,71.31,78,100,16.67,overcast clouds
388,Strezhevoy,RU,60.73,77.59,17.6,92,90,11.18,overcast clouds
389,Saint-Pierre,RE,-21.34,55.48,75.2,83,88,8.05,overcast clouds
390,Narasannapeta,IN,18.42,84.05,68.25,70,100,9.69,light rain
391,Homer,US,59.64,-151.55,42.8,75,90,20.98,light rain
392,Cueto,CU,20.64,-75.94,77.0,83,75,11.41,broken clouds
393,Komsomolskiy,UZ,40.43,71.72,28.4,68,33,4.7,mist
394,Asau,RO,46.43,26.4,36.0,64,62,4.97,light rain
395,Doha,QA,25.29,51.53,71.6,73,0,3.36,clear sky
396,Staryy Nadym,RU,65.61,72.68,11.12,96,68,11.65,broken clouds
397,Havelock,US,34.88,-76.9,63.0,82,20,11.41,few clouds
398,Pithora,IN,21.27,82.52,62.64,48,100,4.81,overcast clouds
399,San Policarpo,PH,12.18,125.51,80.96,83,100,5.86,overcast clouds
400,Ambarawa,ID,-7.26,110.4,48.0,10,82,3.33,broken clouds
401,Bulaevo,KZ,54.91,70.44,7.39,95,88,8.48,overcast clouds
402,Mbaiki,CF,3.87,17.99,73.31,58,0,2.08,clear sky
403,Lysa Hora,UA,48.17,31.11,36.43,87,10,6.06,clear sky
404,Sola,VU,-13.88,167.55,78.22,83,58,2.37,broken clouds
405,Kyrylivka,UA,46.38,35.37,42.84,74,97,10.92,overcast clouds
406,Chimbote,PE,-9.09,-78.58,64.42,78,6,9.31,clear sky
407,Lydenburg,ZA,-25.1,30.46,66.0,100,77,3.0,broken clouds
408,Biak,ID,-0.91,122.88,80.22,72,98,1.48,overcast clouds
409,Abonnema,NG,4.71,6.79,78.8,88,20,5.7,few clouds
410,Fayaoue,NC,-20.65,166.53,78.98,72,100,9.08,overcast clouds
411,Tsogni,GA,-2.79,10.1,75.27,92,100,6.55,overcast clouds
412,Malatya,TR,38.5,38.0,33.8,63,90,1.9,overcast clouds
413,Gat,IL,31.61,34.76,55.0,100,84,1.99,moderate rain
414,Kankon,IN,15.02,74.02,76.35,63,63,6.13,broken clouds
415,Dawlatabad,AF,36.41,64.91,36.57,80,6,7.96,clear sky
416,Taraz,KZ,42.9,71.37,26.6,73,90,4.47,overcast clouds
417,Puerto Madryn,AR,-42.77,-65.04,66.2,17,75,34.45,broken clouds
418,Libreville,GA,0.39,9.45,77.74,87,100,6.08,light rain
419,Zhigalovo,RU,54.81,105.16,4.14,90,96,0.6,overcast clouds
420,Ambon,ID,-3.7,128.18,80.01,88,20,6.93,few clouds
421,Atar,MR,20.52,-13.05,70.52,20,100,6.17,overcast clouds
422,Corrente,BR,-3.74,-43.34,78.1,76,100,1.5,overcast clouds
423,Porto Novo,BJ,6.5,2.6,82.4,83,40,12.75,scattered clouds
424,Krasnoselkup,RU,65.7,82.47,9.3,95,100,13.76,overcast clouds
425,Manado,ID,1.49,124.85,75.2,100,40,1.81,scattered clouds
426,Entebbe,UG,0.06,32.45,68.0,88,20,4.7,few clouds
427,Acapulco,MX,16.86,-99.89,84.2,74,40,9.17,scattered clouds
428,Yangambi,CD,0.81,24.43,69.46,96,54,1.3,broken clouds
429,Grinnell,US,41.74,-92.72,42.8,87,90,6.93,mist
430,Caconda,AO,-13.73,15.07,61.93,94,38,2.57,scattered clouds
431,Chapleau,CA,47.84,-83.4,33.8,96,90,2.55,overcast clouds
432,Beloha,MG,-25.17,45.05,68.45,86,0,2.06,clear sky
433,Vanavara,RU,60.34,102.28,-2.04,93,78,4.18,broken clouds
434,Miyako,JP,39.64,141.95,46.99,71,17,3.67,few clouds
435,Nantucket,US,41.28,-70.1,53.6,87,90,12.75,overcast clouds
436,Saldanha,ZA,-33.01,17.94,53.6,71,3,8.05,clear sky
437,Poopo,BO,-18.37,-66.97,53.62,44,78,13.22,broken clouds
438,Sabzevar,IR,36.21,57.68,44.08,59,88,6.02,overcast clouds
439,Wilhelmsburg,AT,48.11,15.61,35.01,80,30,4.0,scattered clouds
440,Bilibino,RU,68.05,166.44,14.25,94,100,1.59,overcast clouds
441,Flin Flon,CA,54.77,-101.86,17.6,85,90,2.24,light snow
442,Hami,CN,42.8,93.45,17.67,78,0,5.03,clear sky
443,Pankovka,RU,58.5,31.2,34.11,94,100,11.43,moderate rain
444,Soddy-Daisy,US,35.24,-85.19,60.01,98,100,5.01,overcast clouds
445,Nalut,LY,30.33,10.85,58.01,65,53,8.12,broken clouds
446,Tahta,EG,26.77,31.5,60.8,59,0,3.36,clear sky
447,Manta,EC,-0.95,-80.73,80.6,61,75,12.75,broken clouds
448,El Dorado,US,38.77,-120.52,53.01,59,15,4.0,few clouds
449,Betioky,MG,-23.72,44.38,73.9,41,0,2.91,clear sky
450,Talas,TR,38.69,35.55,37.4,64,40,11.41,scattered clouds
451,Belaya Gora,RU,68.53,146.42,0.45,91,100,15.93,overcast clouds
452,Nemuro,JP,43.32,145.57,42.31,71,23,17.76,few clouds
453,Ondjiva,AO,-17.07,15.73,78.4,51,59,6.62,broken clouds
454,Coahuayana,MX,18.73,-103.68,84.2,100,40,11.41,scattered clouds
455,Zhangjiakou,CN,40.81,114.88,22.08,81,34,0.58,scattered clouds
456,Codrington,AU,-38.27,141.97,59.32,66,43,12.33,scattered clouds
457,Nova Olinda Do Norte,BR,-3.89,-59.09,74.26,97,100,1.41,overcast clouds
458,Ayan,RU,56.45,138.17,2.86,85,94,19.98,overcast clouds
459,Lira,UG,2.23,32.91,64.08,93,58,2.37,broken clouds
460,Ormara,PK,25.21,64.64,70.68,35,0,17.81,clear sky
461,Srednekolymsk,RU,67.45,153.68,4.68,94,100,19.55,snow
462,Emmett,US,43.87,-116.5,44.01,54,29,3.78,scattered clouds
463,Soe,ID,-9.86,124.28,74.68,79,100,1.05,overcast clouds
464,Villazon,BO,-22.09,-65.59,56.91,58,72,10.76,moderate rain
465,Awbari,LY,26.59,12.78,48.92,75,0,1.45,clear sky
466,Kaeo,NZ,-35.1,173.78,70.0,72,82,13.0,broken clouds
467,Rawson,AR,-43.3,-65.1,66.2,17,75,34.45,broken clouds
468,Sena Madureira,BR,-9.07,-68.66,86.67,57,66,2.35,moderate rain
469,Rio Gallegos,AR,-51.62,-69.22,51.8,57,40,25.28,scattered clouds
470,Bunda,TZ,-2.05,33.87,65.34,87,93,3.18,overcast clouds
471,Tondano,ID,1.3,124.91,75.2,100,40,1.28,scattered clouds
472,Varnavino,RU,57.4,45.09,26.6,98,93,0.67,overcast clouds
473,Waddan,LY,29.16,16.14,62.46,62,99,9.62,overcast clouds
474,Bar Harbor,US,44.39,-68.2,46.99,100,90,3.36,mist
475,Deputatskiy,RU,69.3,139.9,-14.19,89,97,8.08,overcast clouds
476,Marrakesh,MA,31.63,-8.01,57.2,76,75,11.41,broken clouds
477,Richards Bay,ZA,-28.78,32.04,66.13,81,41,1.63,scattered clouds
478,Margate,GB,51.38,1.39,51.01,89,100,1.99,overcast clouds
479,Paita,PE,-5.09,-81.11,64.24,81,3,17.0,clear sky
480,Kalianget,ID,-7.05,113.93,82.2,74,100,1.12,moderate rain
481,Bereda,ES,43.27,-7.54,46.99,100,100,3.0,overcast clouds
482,Jumla,NP,29.27,82.18,40.86,63,100,3.89,overcast clouds
483,Ulladulla,AU,-35.35,150.47,75.99,60,0,8.05,clear sky
484,Fort Nelson,CA,58.81,-122.7,10.4,85,20,2.01,few clouds
485,Kisangani,CD,0.52,25.2,69.48,94,86,2.39,overcast clouds
486,Lang Son,VN,21.83,106.73,63.79,95,10,2.91,clear sky
487,Graham,US,47.05,-122.29,48.2,76,90,5.19,overcast clouds
488,Santa Marta,CO,11.24,-74.2,84.99,71,98,13.0,overcast clouds
489,Conceicao Da Barra,BR,-18.59,-39.73,73.09,90,1,6.42,clear sky
490,Vaitape,PF,-16.52,-151.75,81.18,79,47,13.91,moderate rain
491,Aklavik,CA,68.22,-135.01,-2.2,77,5,9.17,clear sky
492,Paramonga,PE,-10.67,-77.83,64.58,77,53,7.31,broken clouds
493,Tomatlan,MX,19.93,-105.25,84.63,61,0,4.34,clear sky
494,Karratha,AU,-20.74,116.85,82.96,58,1,9.26,clear sky
495,Nanortalik,GL,60.14,-45.24,27.25,86,100,54.02,light snow
496,Itoman,JP,26.12,127.67,71.6,68,75,14.99,broken clouds
497,Marsaxlokk,MT,35.84,14.54,57.2,93,40,3.36,scattered clouds
498,Lagos,NG,6.58,3.75,80.6,88,20,2.24,few clouds
499,Cairns,AU,-16.92,145.77,82.99,65,17,8.05,few clouds
500,Hamina,FI,60.57,27.2,41.0,100,90,8.05,fog
501,San Cristobal,VE,7.77,-72.22,80.6,78,40,9.17,shower rain
502,Abnub,EG,27.27,31.15,57.2,54,0,11.41,clear sky
503,Solnechnyy,RU,50.72,136.63,7.61,79,0,1.7,clear sky
504,Mbandaka,CD,0.05,18.26,73.17,87,34,2.73,scattered clouds
505,Raudeberg,NO,61.99,5.14,44.6,81,59,16.11,broken clouds
506,Sioux Lookout,CA,50.1,-91.92,26.6,86,90,9.17,overcast clouds
507,Jilib,SO,0.49,42.79,75.47,91,77,3.47,broken clouds
508,Honningsvag,NO,70.98,25.97,33.13,89,35,9.42,scattered clouds
509,Bukachacha,RU,52.98,116.92,4.08,84,0,3.29,clear sky
510,Bousso,TD,10.48,16.71,76.95,28,44,5.88,scattered clouds
511,Tommot,RU,58.96,126.29,3.07,91,100,12.1,light snow
512,Burgos,ES,42.34,-3.71,48.2,70,75,13.87,broken clouds
513,Lere,NG,10.39,8.57,70.16,38,30,2.93,scattered clouds
514,Tahoua,NE,14.89,5.27,80.6,24,0,6.93,clear sky
515,Terney,RU,45.05,136.61,23.32,87,1,12.8,clear sky
516,Maumere,ID,-8.62,122.21,82.47,75,100,4.76,overcast clouds
517,Pinawa,CA,50.15,-95.88,30.22,91,100,10.11,overcast clouds
518,Jampur,PK,29.64,70.6,53.31,77,9,11.79,clear sky
519,Newport,GB,51.59,-3.0,37.99,92,80,4.23,broken clouds
520,Naze,JP,28.37,129.48,69.8,82,40,4.7,scattered clouds
521,College,US,64.86,-147.8,30.2,73,90,8.05,overcast clouds
522,Qarqin,AF,37.42,66.04,43.05,61,22,22.32,few clouds
523,Savannah Bight,HN,16.45,-85.85,75.2,94,90,4.7,moderate rain
524,Dicabisagan,PH,17.08,122.42,76.19,83,56,9.55,light rain
525,Chiang Khong,TH,20.26,100.4,64.4,100,0,1.5,mist
526,Kapuskasing,CA,49.42,-82.43,33.8,86,85,1.12,overcast clouds
527,Katangli,RU,51.71,143.23,10.67,83,3,12.5,clear sky
528,Irbeyskoye,RU,55.64,95.45,0.5,93,79,0.63,broken clouds
529,Zangakatun,AM,39.82,45.04,32.0,84,81,1.12,broken clouds
530,Kisaran,ID,2.98,99.62,72.9,96,88,1.61,moderate rain
531,Anadyr,RU,64.75,177.48,15.8,78,90,4.47,light snow
532,Tabora,TZ,-5.02,32.8,66.42,87,55,3.0,broken clouds
533,Saint-Francois,FR,46.42,3.91,43.0,93,0,4.7,clear sky
534,Capao Da Canoa,BR,-29.75,-50.01,75.58,81,100,13.62,overcast clouds
535,Eisenerz,AT,47.53,14.88,33.01,86,0,1.59,clear sky
536,Shimoda,JP,34.67,138.95,52.0,92,19,6.91,few clouds
537,Marsh Harbour,BS,26.54,-77.06,75.72,72,63,17.78,broken clouds
538,Oistins,BB,13.07,-59.53,80.6,78,20,13.87,few clouds
539,Lasa,IT,46.62,10.7,30.2,74,5,2.46,clear sky
540,Bima,ID,-8.47,118.72,79.95,82,100,4.0,moderate rain
541,Zapolyarnyy,RU,69.42,30.81,24.8,92,75,10.29,broken clouds
542,Gunjur,GM,13.2,-16.73,71.6,68,0,4.7,clear sky
543,Haines Junction,CA,60.75,-137.51,-2.2,84,100,1.12,overcast clouds
544,Pradopolis,BR,-21.36,-48.07,84.2,42,75,12.75,broken clouds
545,Bairiki,KI,1.33,172.98,84.2,70,20,14.99,few clouds
546,Akdagmadeni,TR,39.66,35.88,28.67,96,100,7.4,light rain
547,Ikom,NG,5.97,8.71,75.85,87,94,2.3,overcast clouds
548,Trairi,BR,-3.28,-39.27,80.31,72,81,11.77,broken clouds
549,Nizhniy Kuranakh,RU,58.84,125.49,2.8,91,100,9.93,light snow
550,Elk City,US,35.41,-99.4,55.4,32,1,8.05,clear sky
551,Suntar,RU,62.14,117.63,-7.56,90,79,5.68,broken clouds
552,Ascension,US,30.22,-90.9,73.0,94,46,6.85,scattered clouds
553,Nauta,PE,-4.51,-73.58,80.82,77,99,0.87,overcast clouds
554,Sorland,NO,67.67,12.69,33.8,68,20,0.4,few clouds
555,Grootfontein,NA,-19.57,18.12,78.51,37,24,8.1,few clouds
556,Puerto Lempira,HN,15.27,-83.77,77.97,88,100,7.56,moderate rain
557,Maldonado,UY,-34.67,-54.92,77.0,73,20,4.7,few clouds
558,Prachuap Khiri Khan,TH,12.22,99.75,71.11,91,4,3.42,clear sky
559,Waipawa,NZ,-41.41,175.52,62.01,93,98,8.05,drizzle
560,Kampot,KH,10.62,104.18,78.8,74,20,3.36,few clouds
561,Copiapo,CL,-27.37,-70.33,62.6,67,0,10.29,clear sky
562,Surt,LY,31.21,16.59,64.83,73,43,8.75,light rain
563,Campbell River,CA,50.02,-125.24,44.6,81,75,3.36,broken clouds
564,Batagay-Alyta,RU,67.8,130.41,-3.14,73,46,3.47,scattered clouds
565,Saint George,US,37.1,-113.58,57.0,25,1,2.08,clear sky
566,Krasnoborsk,RU,61.56,45.93,28.67,97,100,2.08,light snow
567,Qaqortoq,GL,60.72,-46.03,24.8,58,100,21.92,light snow
568,Astoria,US,46.19,-123.83,51.01,81,90,11.41,overcast clouds
569,Pau Brasil,BR,-15.46,-39.65,68.31,95,66,3.22,broken clouds
570,Cheney,US,47.49,-117.58,37.99,74,90,9.17,overcast clouds
571,Fare,PF,-16.7,-151.02,81.64,81,41,20.09,scattered clouds
572,Ilhabela,BR,-23.78,-45.36,74.37,86,26,11.72,scattered clouds
573,Skibotn,NO,69.39,20.27,26.01,92,0,8.05,clear sky
574,Mpwapwa,TZ,-6.35,36.48,69.85,82,97,2.89,overcast clouds
575,Troitsko-Pechorsk,RU,62.71,56.2,23.47,97,98,5.88,overcast clouds
576,Proletariy,RU,58.43,31.7,33.69,92,100,9.44,moderate rain
577,Saint-Denis,FR,48.92,2.33,45.0,93,0,3.36,clear sky
578,Chkalovskoye,RU,44.84,133.04,12.6,90,43,0.74,scattered clouds
579,Nuevo Ideal,MX,24.89,-105.07,70.11,28,4,13.33,clear sky
580,Chapais,CA,49.78,-74.85,21.2,92,90,8.05,light snow
581,Seshcha,RU,53.74,33.34,31.89,98,98,4.25,overcast clouds
582,Esterhazy,CA,50.65,-102.08,37.4,69,95,16.11,overcast clouds
583,Kholtoson,RU,50.3,103.31,5.34,91,91,0.47,overcast clouds
584,Duma,CN,34.77,108.14,32.0,94,75,2.24,mist
585,Vanimo,PG,-2.67,141.3,83.59,68,61,2.75,broken clouds
586,Yumen,CN,40.28,97.2,13.82,86,76,6.08,broken clouds
587,Ugoofaaru,MV,5.67,73.0,82.44,67,57,11.92,broken clouds
588,Guozhen,CN,34.37,107.36,33.73,84,32,0.78,scattered clouds
589,Masaka,UG,-0.33,31.73,58.01,89,94,1.61,overcast clouds
590,Morros,BR,-9.45,-46.3,76.08,56,92,6.69,overcast clouds
591,Nuevo Progreso,MX,23.17,-97.95,86.0,58,5,5.01,clear sky
592,Cap Malheureux,MU,-19.98,57.61,75.0,86,6,5.99,light rain
593,Tagusao,PH,9.19,117.81,80.65,77,88,10.42,overcast clouds
594,Inzer,RU,54.22,57.56,21.36,91,100,4.03,snow
595,Clarence Town,AU,-32.58,151.78,78.01,64,0,8.05,clear sky
596,Amarante Do Maranhao,BR,-5.57,-46.74,79.72,67,98,4.34,overcast clouds
597,Port Shepstone,ZA,-30.74,30.45,66.04,87,100,7.47,light rain
598,Calama,CL,-22.47,-68.93,77.0,12,0,24.16,clear sky
599,Hit,IQ,33.64,42.83,60.91,29,100,14.85,overcast clouds
600,Ishigaki,JP,24.34,124.16,75.2,73,75,17.22,broken clouds
601,Butembo,CD,0.15,29.28,56.26,97,88,2.1,overcast clouds
602,Bucerias,MX,20.75,-105.33,82.4,74,5,11.41,clear sky
603,Ituacu,BR,-13.81,-41.3,69.78,79,66,8.52,broken clouds
604,Zholymbet,KZ,51.74,71.71,5.14,90,0,3.96,clear sky
605,Pasni,PK,25.26,63.47,70.41,36,0,13.8,clear sky
606,Wilbraham,US,42.12,-72.43,45.0,60,90,3.51,overcast clouds
607,Bataipora,BR,-22.3,-53.27,81.55,42,9,1.88,clear sky
608,Onega,RU,63.91,38.14,30.69,98,99,4.68,overcast clouds
609,Tucuru,GT,15.3,-90.07,71.6,68,40,4.7,scattered clouds
610,Redlands,US,34.06,-117.18,71.6,21,5,4.99,haze
611,Boende,CD,-0.22,20.87,71.76,92,14,2.62,few clouds
612,Kalmunai,LK,7.42,81.82,76.98,81,61,4.59,broken clouds
613,Creston,US,41.06,-94.36,37.4,100,90,5.82,mist
614,Jiwani,PK,25.05,61.74,69.3,32,0,13.71,clear sky
615,Macenta,GN,8.54,-9.47,68.54,59,70,1.39,broken clouds
616,Grand-Santi,GF,4.25,-54.38,75.34,90,72,3.42,broken clouds
617,Praya,CV,14.92,-23.51,78.8,74,75,16.11,haze
618,Hailar,CN,49.2,119.7,3.42,90,0,6.6,clear sky
619,Fukue,JP,32.69,128.84,60.91,56,19,10.07,few clouds
620,Ballina,AU,-28.87,153.57,73.4,64,2,1.12,clear sky
621,Pueblo,US,38.25,-104.61,48.99,49,1,5.82,clear sky
622,Phalaborwa,ZA,-23.94,31.14,66.2,100,95,5.82,overcast clouds
623,Charters Towers,AU,-20.1,146.27,81.21,57,34,9.57,scattered clouds
624,Mehamn,NO,71.04,27.85,24.8,73,0,12.75,clear sky
625,Kambia,SL,9.12,-12.92,77.22,88,49,3.38,scattered clouds
626,Mount Isa,AU,-20.73,139.5,86.0,42,0,9.17,clear sky
627,Aleksandrovsk-Sakhalinskiy,RU,50.9,142.16,17.53,91,100,6.24,light snow
628,Lompoc,US,34.64,-120.46,62.6,55,1,12.75,clear sky
629,Prince Rupert,CA,54.32,-130.32,42.8,93,90,2.24,light rain
630,Hastings,GB,50.86,0.57,48.2,100,99,9.17,overcast clouds
631,Salta,AR,-24.79,-65.41,87.8,31,75,17.22,broken clouds
632,Sokolo,ML,14.73,-6.12,68.54,22,0,10.11,clear sky
633,Pingliang,CN,35.54,106.69,24.03,92,47,2.15,scattered clouds
634,Piacabucu,BR,-10.41,-36.43,76.89,78,0,9.4,clear sky
635,Kulhudhuffushi,MV,6.62,73.07,81.81,64,48,9.35,scattered clouds
636,Port Blair,IN,11.67,92.75,80.67,78,2,12.21,clear sky
637,Noumea,NC,-22.28,166.46,86.0,45,0,3.36,clear sky
638,Laurel,US,39.1,-76.85,55.99,66,90,4.7,overcast clouds
639,Bertoua,CM,4.58,13.68,71.55,52,95,0.51,overcast clouds
640,Sisimiut,GL,66.94,-53.67,27.72,96,100,21.0,snow
641,Palmer,US,42.16,-72.33,45.0,60,90,3.87,light rain
642,Almaznyy,RU,48.04,40.05,39.2,93,40,6.71,light rain
643,Kultuk,RU,51.72,103.7,11.26,89,92,3.69,overcast clouds
644,Mezen,RU,65.85,44.24,29.44,97,99,6.67,overcast clouds
645,Viedma,AR,-40.81,-63.0,66.06,26,83,14.88,broken clouds
646,Lithgow,AU,-33.48,150.15,73.99,58,0,1.99,clear sky
647,Sakaraha,MG,-22.9,44.53,73.71,45,0,3.44,clear sky
648,Aktau,KZ,43.65,51.2,32.0,88,40,6.71,mist
649,Leh,IN,34.17,77.58,17.38,86,99,2.75,light snow
650,High Level,CA,58.52,-117.14,15.8,85,90,3.36,overcast clouds
651,Borba,BR,-4.39,-59.59,74.46,96,100,0.31,overcast clouds
652,Camacha,PT,33.08,-16.33,57.2,58,40,23.04,scattered clouds
653,Garowe,SO,8.41,48.48,73.9,66,65,13.09,broken clouds
654,Shingu,JP,33.73,135.98,52.99,63,0,5.06,clear sky
655,Sept-Iles,CA,50.2,-66.38,23.0,79,100,5.82,snow
656,Beliu,RO,46.48,21.98,34.0,81,90,2.24,fog
657,Warrington,GB,53.39,-2.58,42.8,87,22,6.93,few clouds
658,West Carrollton City,US,39.67,-84.25,55.99,93,75,12.75,broken clouds
659,Hollins,US,37.34,-79.94,53.6,71,90,13.87,overcast clouds
660,Marshalltown,US,42.05,-92.91,37.99,100,90,12.75,overcast clouds
661,Lazaro Cardenas,MX,17.96,-102.2,82.53,75,0,7.65,clear sky
662,Pskov,RU,57.81,28.35,41.0,100,100,6.71,light intensity drizzle
663,Vetluga,RU,57.86,45.78,26.33,99,82,1.01,broken clouds
664,Shakiso,ET,5.75,38.92,57.74,93,44,2.77,light rain
665,Boyolangu,ID,-8.12,111.89,77.25,82,82,2.53,broken clouds
666,Castrillon,ES,43.4,-6.79,51.8,100,20,5.82,few clouds
667,Roma,US,43.21,-75.46,46.4,61,90,5.82,overcast clouds
668,Mahibadhoo,MV,3.78,72.97,82.78,74,77,11.5,broken clouds
669,Dagana,MR,16.52,-15.51,75.2,50,0,2.24,clear sky
670,Saint Anthony,US,45.02,-93.22,36.0,80,90,1.48,overcast clouds
671,Muisne,EC,0.6,-80.03,72.68,84,87,11.01,overcast clouds
672,Sekoma,BW,-24.4,23.88,75.16,22,1,13.24,clear sky
673,Itarema,BR,-2.92,-39.92,80.42,73,90,16.06,overcast clouds
674,Mao,ES,39.89,4.27,60.8,82,79,11.41,broken clouds
675,Zary,PL,51.64,15.14,33.01,82,0,5.99,clear sky
676,Valdivia,CL,-39.81,-73.25,59.0,47,0,9.17,clear sky
677,Avera,US,33.19,-82.53,69.8,60,1,4.7,clear sky
678,Disna,BY,55.57,28.2,44.08,93,99,9.33,overcast clouds
679,Ulagan,RU,50.63,87.96,9.32,85,2,1.57,clear sky
680,Craig,US,40.52,-107.55,48.2,21,1,17.22,clear sky
681,Road Town,VG,18.42,-64.62,78.8,78,20,4.7,few clouds
682,Waverly,US,42.74,-84.62,48.2,100,90,5.82,light rain
683,Barcelos,PT,41.54,-8.62,50.0,100,40,2.24,scattered clouds
684,Sao Joao Da Barra,BR,-21.64,-41.05,73.87,89,99,13.06,overcast clouds
685,Yaan,NG,7.38,8.57,81.07,50,46,6.38,scattered clouds
686,Saint-Georges,GD,12.06,-61.75,78.8,88,75,13.87,broken clouds
687,Sungaipenuh,ID,-2.08,101.38,63.82,94,94,1.34,light rain
688,Altayskoye,RU,51.95,85.33,11.39,91,0,1.5,clear sky
689,Nanakuli,US,21.39,-158.15,86.0,55,40,10.29,scattered clouds
690,Valleyview,CA,55.07,-117.29,28.4,74,10,5.82,clear sky
691,Ati,TD,13.22,18.34,75.42,18,0,13.73,clear sky
692,Itaituba,BR,-4.28,-55.98,80.6,88,40,5.82,light rain
693,Xining,CN,36.62,101.77,19.69,91,9,1.28,clear sky
